[
  {
    "n": {
"identity": 19,
"labels": [
        "Places"
      ],
"properties": {
"CONTACT": "0621410050",
"LONGITUDE": "8.495792142940026",
"ADDRESS": "Theodor-Heuss-Anlage 2, 68169 Mannheim",
"ID": 16,
"LATITUDE": "49.48106301098934",
"NAME": "Luisenpark"
      }
    }
  },
  {
    "n": {
"identity": 20,
"labels": [
        "Places"
      ],
"properties": {
"CONTACT": "0621410050",
"LONGITUDE": "8.48303600986615",
"ADDRESS": "Max-Joseph-Straße 64, 68169 Mannheim",
"ID": 17,
"LATITUDE": "49.50297656688218",
"NAME": "Herzogenried Park"
      }
    }
  },
  {
    "n": {
"identity": 21,
"labels": [
        "Places"
      ],
"properties": {
"CONTACT": "03060980018",
"LONGITUDE": "13.403362727153297",
"ADDRESS": "Gleimstraße 55, 10437 Berlin",
"ID": 18,
"LATITUDE": "52.542550054582584",
"NAME": "Mauerpark"
      }
    }
  },
  {
    "n": {
"identity": 22,
"labels": [
        "Places"
      ],
"properties": {
"CONTACT": "03083850100",
"LONGITUDE": "13.30561312715056",
"ADDRESS": "Königin-Luise-Straße 6-8, 14195 Berlin",
"ID": 19,
"LATITUDE": "52.45455710751621",
"NAME": "Botanical Garden and Botanical Museum"
      }
    }
  },
  {
    "n": {
"identity": 23,
"labels": [
        "Places"
      ],
"properties": {
"CONTACT": "01454677789",
"LONGITUDE": "8.651685442400911",
"ADDRESS": "69123 Heidelberg",
"ID": 20,
"LATITUDE": "49.41452375928352",
"NAME": "SRH Science Park"
      }
    }
  },
  {
    "n": {
"identity": 24,
"labels": [
        "Places"
      ],
"properties": {
"CONTACT": "06221658880",
"LONGITUDE": "8.717895698221696",
"ADDRESS": "Schloß-Wolfsbrunnenweg 18, 69117 Heidelberg",
"ID": 21,
"LATITUDE": "49.41104827466864",
"NAME": "Heidelberg Castle Garden"
      }
    }
  },
  {
    "n": {
"identity": 26,
"labels": [
        "Places"
      ],
"properties": {
"CONTACT": "071122280",
"LONGITUDE": "9.180610440531304",
"ADDRESS": "Schloßpl., 70173 Stuttgart",
"ID": 22,
"LATITUDE": "48.77854173950212",
"NAME": "Schlossplatz"
      }
    }
  },
  {
    "n": {
"identity": 27,
"labels": [
        "Places"
      ],
"properties": {
"CONTACT": "032121239534",
"LONGITUDE": "9.175897796352418",
"ADDRESS": "Panoramastraße 33, 70174 Stuttgart",
"ID": 23,
"LATITUDE": "48.78740812945066",
"NAME": "Chinese Garden Stuttgart"
      }
    }
  }
]